<?xml version="1.0" encoding="utf-8"?>
<gpx creator="mapy.cz" version="1.1" xmlns="http://www.topografix.com/GPX/1/1" xmlns:xsi="http://www.w3.org/2001/XMLSchema-instance" xsi:schemaLocation="http://www.topografix.com/GPX/1/1 http://www.topografix.com/GPX/1/1/gpx.xsd">
    <wpt lat="50.4012279958" lon="13.227391541">
        <ele>345.008578283</ele>
        <name>Klášterec n. Ohří,, IP Verne I N</name>
    </wpt>
    <wpt lat="50.4010851681" lon="13.2272708416">
        <ele>344.499542197</ele>
        <name>Klášterec n. Ohří,, IP Verne I D</name>
    </wpt>
    <wpt lat="50.4039544612" lon="13.2321336865">
        <ele>355.0</ele>
        <name>Klášterec n. Ohří,, IP Verne III R</name>
    </wpt>
    <wpt lat="50.4037043452" lon="13.2312874496">
        <ele>355.0</ele>
        <name>Klášterec n. Ohří,, IP Verne III L</name>
    </wpt>
    <wpt lat="50.3990634531" lon="13.2180534303">
        <ele>344.537815036</ele>
        <name>Klášterec n. Ohří,, IP Verne II -</name>
    </wpt>
    <wpt lat="50.3871524334" lon="13.1925737858">
        <ele>315.0</ele>
        <name>Klášterec n. Ohří, Miřetice, aut. nádr. -</name>
    </wpt>
    <wpt lat="50.3910081089" lon="13.1838901341">
        <ele>328.0</ele>
        <name>Klášterec n. Ohří,, Petlerská I N</name>
    </wpt>
    <wpt lat="50.3907559812" lon="13.1838391721">
        <ele>327.0</ele>
        <name>Klášterec n. Ohří,, Petlerská I D</name>
    </wpt>
    <wpt lat="50.3952989727" lon="13.1818798184">
        <ele>351.866124843</ele>
        <name>Klášterec n. Ohří,, Petlerská II N</name>
    </wpt>
    <wpt lat="50.3950957954" lon="13.1818181276">
        <ele>351.0</ele>
        <name>Klášterec n. Ohří,, Petlerská II D</name>
    </wpt>
    <wpt lat="50.3825423867" lon="13.2001389563">
        <ele>311.0</ele>
        <name>Klášterec n. Ohří,, porcelánka N</name>
    </wpt>
    <wpt lat="50.3830392659" lon="13.1995636225">
        <ele>310.0</ele>
        <name>Klášterec n. Ohří,, porcelánka R</name>
    </wpt>
    <wpt lat="50.383599177" lon="13.1946618855">
        <ele>312.0</ele>
        <name>Klášterec n. Ohří,, Pražská R</name>
    </wpt>
    <wpt lat="50.3841047734" lon="13.1926958263">
        <ele>315.0</ele>
        <name>Klášterec n. Ohří,, Pražská N</name>
    </wpt>
    <wpt lat="50.3854210675" lon="13.1964160502">
        <ele>315.198333407</ele>
        <name>Klášterec n. Ohří,, žel. st. -</name>
    </wpt>
    <wpt lat="50.3933349252" lon="13.1772315502">
        <ele>336.0</ele>
        <name>Klášterec n. Ohří,, Okružní N</name>
    </wpt>
    <wpt lat="50.3932350129" lon="13.1771309674">
        <ele>335.288262519</ele>
        <name>Klášterec n. Ohří,, Okružní D</name>
    </wpt>
    <wpt lat="50.3906735033" lon="13.1791171432">
        <ele>324.03351433</ele>
        <name>Klášterec n. Ohří,, Olšová D</name>
    </wpt>
    <wpt lat="50.3907968849" lon="13.1791050732">
        <ele>324.0</ele>
        <name>Klášterec n. Ohří,, Olšová N</name>
    </wpt>
</gpx>