<?xml version="1.0" encoding="utf-8"?>
<gpx creator="mapy.cz" version="1.1" xmlns="http://www.topografix.com/GPX/1/1" xmlns:xsi="http://www.w3.org/2001/XMLSchema-instance" xsi:schemaLocation="http://www.topografix.com/GPX/1/1 http://www.topografix.com/GPX/1/1/gpx.xsd">
    <wpt lat="50.077168867" lon="12.3803807795">
        <ele>458.212540905</ele>
        <name>Cheb,,Pivovarská Obchodní centrum P</name>
    </wpt>
    <wpt lat="50.07734254" lon="12.3799663782">
        <ele>459.0</ele>
        <name>Cheb,,Pivovarská Obchodní centrum L</name>
    </wpt>
    <wpt lat="50.0826989114" lon="12.378424108">
        <ele>433.0</ele>
        <name>Cheb,,Pekařská Obchodní centrum P</name>
    </wpt>
    <wpt lat="50.0814992934" lon="12.3791831732">
        <ele>437.0</ele>
        <name>Cheb,,Pražská Obchodní centrum L</name>
    </wpt>
    <wpt lat="50.0767806172" lon="12.3734942079">
        <ele>452.0</ele>
        <name>Cheb,,křiž. DS</name>
    </wpt>
    <wpt lat="50.0768610835" lon="12.3738187551">
        <ele>451.0</ele>
        <name>Cheb,,křiž NS</name>
    </wpt>
    <wpt lat="50.0769341737" lon="12.3736658692">
        <ele>451.59006581</ele>
        <name>Cheb,,křiž DH</name>
    </wpt>
    <wpt lat="50.0770139694" lon="12.3739930987">
        <ele>450.0</ele>
        <name>Cheb,,křiž NH</name>
    </wpt>
    <wpt lat="50.0753711164" lon="12.368273288">
        <ele>463.0</ele>
        <name>Cheb,,Městské sady LH</name>
    </wpt>
    <wpt lat="50.0753563643" lon="12.3679621518">
        <ele>463.041932191</ele>
        <name>Cheb,,Městské sady LS</name>
    </wpt>
    <wpt lat="50.0752611458" lon="12.3684597015">
        <ele>463.153435675</ele>
        <name>Cheb,,Městské sady P</name>
    </wpt>
    <wpt lat="50.0739770383" lon="12.3561711609">
        <ele>457.854874064</ele>
        <name>Cheb,,Skalka sídliště D</name>
    </wpt>
    <wpt lat="50.0742774457" lon="12.3569624126">
        <ele>457.0</ele>
        <name>Cheb,,Skalka sídliště P</name>
    </wpt>
    <wpt lat="50.074474588" lon="12.3520821333">
        <ele>470.0</ele>
        <name>Cheb,,Skalka Přátelství L</name>
    </wpt>
    <wpt lat="50.0743384659" lon="12.3521223664">
        <ele>470.0</ele>
        <name>Cheb,,Skalka Přátelství P</name>
    </wpt>
    <wpt lat="50.0712914765" lon="12.3642995954">
        <ele>478.151164168</ele>
        <name>Cheb,,nemocnice N</name>
    </wpt>
    <wpt lat="50.0715523213" lon="12.3642633855">
        <ele>477.0</ele>
        <name>Cheb,,nemocnice D</name>
    </wpt>
    <wpt lat="50.0685603172" lon="12.3646697402">
        <ele>489.0</ele>
        <name>Cheb,Spáleniště,Jungmannova L</name>
    </wpt>
    <wpt lat="50.0684845448" lon="12.3643787205">
        <ele>490.0</ele>
        <name>Cheb,Spáleniště,Jungmannova P</name>
    </wpt>
    <wpt lat="50.0677697361" lon="12.3683457077">
        <ele>478.0</ele>
        <name>Cheb,,ÚSP D</name>
    </wpt>
    <wpt lat="50.067885071" lon="12.3685482144">
        <ele>477.559538454</ele>
        <name>Cheb,,ÚSP N</name>
    </wpt>
    <wpt lat="50.0667008758" lon="12.3709192872">
        <ele>481.835122876</ele>
        <name>Cheb,,Osvobození N</name>
    </wpt>
    <wpt lat="50.0663327426" lon="12.3707999289">
        <ele>482.002938829</ele>
        <name>Cheb,,Osvobození D</name>
    </wpt>
    <wpt lat="50.0653336197" lon="12.37284109">
        <ele>485.0</ele>
        <name>Cheb,,M.Kopeckého P</name>
    </wpt>
    <wpt lat="50.0655401498" lon="12.3731683195">
        <ele>484.0</ele>
        <name>Cheb,,M.Kopeckého L</name>
    </wpt>
    <wpt lat="50.0653450191" lon="12.378424108">
        <ele>476.0</ele>
        <name>Cheb,,Dyleňská u lávky N</name>
    </wpt>
    <wpt lat="50.0655542314" lon="12.3784080148">
        <ele>476.0</ele>
        <name>Cheb,,Dyleňská u lávky D</name>
    </wpt>
    <wpt lat="50.0683772564" lon="12.3760315776">
        <ele>480.0</ele>
        <name>Cheb,,Dyleňská u stadionu N</name>
    </wpt>
    <wpt lat="50.0682216883" lon="12.3760986328">
        <ele>480.62989076</ele>
        <name>Cheb,,Dyleňská u stadionu D</name>
    </wpt>
    <wpt lat="50.0698927045" lon="12.3768804967">
        <ele>478.0</ele>
        <name>Cheb,,Riegerova D</name>
    </wpt>
    <wpt lat="50.0706329942" lon="12.3783838749">
        <ele>473.069467078</ele>
        <name>Cheb,,Riegerova N</name>
    </wpt>
    <wpt lat="50.0549695641" lon="12.396671176">
        <ele>444.0</ele>
        <name>Cheb,Podhrad,točna L</name>
    </wpt>
    <wpt lat="50.0593254715" lon="12.3945696652">
        <ele>470.0</ele>
        <name>Cheb,Podhrad,Chebská D</name>
    </wpt>
    <wpt lat="50.0600476563" lon="12.3932620883">
        <ele>474.0</ele>
        <name>Cheb,Podhrad,Chebská N</name>
    </wpt>
    <wpt lat="50.0646919012" lon="12.3855373263">
        <ele>488.0</ele>
        <name>Cheb,,Podhradská N</name>
    </wpt>
    <wpt lat="50.0644598901" lon="12.3855614662">
        <ele>488.0</ele>
        <name>Cheb,,Podhradská D</name>
    </wpt>
    <wpt lat="50.0679890066" lon="12.3873344064">
        <ele>477.282081739</ele>
        <name>Cheb,,Podhradská depo rozc.0,2 N</name>
    </wpt>
    <wpt lat="50.0722061098" lon="12.3874484003">
        <ele>468.0</ele>
        <name>Cheb,,Švédský vrch D</name>
    </wpt>
    <wpt lat="50.0730208308" lon="12.3874242604">
        <ele>465.0</ele>
        <name>Cheb,,Švédský vrch N</name>
    </wpt>
    <wpt lat="50.0765962154" lon="12.3861180246">
        <ele>448.0</ele>
        <name>Cheb,,Vrázova P</name>
    </wpt>
    <wpt lat="50.0768195093" lon="12.3853857815">
        <ele>450.0</ele>
        <name>Cheb,,Vrázova L</name>
    </wpt>
    <wpt lat="50.0851967186" lon="12.3912625015">
        <ele>431.294748278</ele>
        <name>Cheb,,vodárna D</name>
    </wpt>
    <wpt lat="50.0854890794" lon="12.3919169605">
        <ele>433.421681776</ele>
        <name>Cheb,,vodárna N</name>
    </wpt>
    <wpt lat="50.0887030363" lon="12.3949237168">
        <ele>433.0</ele>
        <name>Cheb,Hradiště N</name>
    </wpt>
    <wpt lat="50.0890054554" lon="12.3949639499">
        <ele>431.859053717</ele>
        <name>Cheb,Hradiště D</name>
    </wpt>
    <wpt lat="50.0941177458" lon="12.3969957232">
        <ele>446.0</ele>
        <name>Cheb,,Tršnická U přejezdu D</name>
    </wpt>
    <wpt lat="50.0948265195" lon="12.3969581723">
        <ele>447.0</ele>
        <name>Cheb,,Tršnická U přejezdu N</name>
    </wpt>
    <wpt lat="50.1022461802" lon="12.3983824253">
        <ele>438.0</ele>
        <name>Cheb,Jindřichov,domky D</name>
    </wpt>
    <wpt lat="50.1022461802" lon="12.3985084891">
        <ele>438.913918616</ele>
        <name>Cheb,Jindřichov,domky N</name>
    </wpt>
    <wpt lat="50.1060817391" lon="12.3996993899">
        <ele>436.0</ele>
        <name>Cheb,Jindřichov,točna P</name>
    </wpt>
    <wpt lat="50.0813350081" lon="12.3758625984">
        <ele>436.0</ele>
        <name>Cheb,,plynárna N</name>
    </wpt>
    <wpt lat="50.0822945684" lon="12.3747494817">
        <ele>434.92252573</ele>
        <name>Cheb,,plynárna D</name>
    </wpt>
    <wpt lat="50.0797109306" lon="12.3747830093">
        <ele>441.148961024</ele>
        <name>Cheb,,Májová N</name>
    </wpt>
    <wpt lat="50.0795808434" lon="12.3746207356">
        <ele>442.0</ele>
        <name>Cheb,,Májová D</name>
    </wpt>
    <wpt lat="50.0813933462" lon="12.3727297783">
        <ele>435.0</ele>
        <name>Cheb,,Kasární nám. L</name>
    </wpt>
    <wpt lat="50.0813055038" lon="12.3726251721">
        <ele>435.0</ele>
        <name>Cheb,,Kasární nám. P</name>
    </wpt>
    <wpt lat="50.0835169852" lon="12.3680399358">
        <ele>434.0</ele>
        <name>Cheb,,Havlíčkova P</name>
    </wpt>
    <wpt lat="50.0836376846" lon="12.3680640757">
        <ele>434.0</ele>
        <name>Cheb,,Havlíčkova L</name>
    </wpt>
    <wpt lat="50.0910774618" lon="12.370903194">
        <ele>469.0</ele>
        <name>Cheb,,Zlatý vrch N</name>
    </wpt>
    <wpt lat="50.0908353925" lon="12.3705169559">
        <ele>469.988564161</ele>
        <name>Cheb,,Zlatý vrch D</name>
    </wpt>
    <wpt lat="50.0876449049" lon="12.3753248155">
        <ele>466.67564297</ele>
        <name>Cheb,Zlatý vrch,škola P</name>
    </wpt>
    <wpt lat="50.0879862159" lon="12.3810888827">
        <ele>454.597373308</ele>
        <name>Cheb,Zlatý vrch,Dvořákova P</name>
    </wpt>
    <wpt lat="50.0862313807" lon="12.3783516884">
        <ele>435.151519141</ele>
        <name>Cheb,Zlatý vrch,Slavice L</name>
    </wpt>
    <wpt lat="50.0860898942" lon="12.3728826642">
        <ele>444.0</ele>
        <name>Cheb,Zlatý vrch,B.Němcové L</name>
    </wpt>
    <wpt lat="50.0785756856" lon="12.342697084">
        <ele>471.772827766</ele>
        <name>Cheb,,Myslivna L</name>
    </wpt>
    <wpt lat="50.0771259516" lon="12.3428928852">
        <ele>476.806991785</ele>
        <name>Cheb,,Skalka u střelnice P</name>
    </wpt>
    <wpt lat="50.0740749389" lon="12.3483324051">
        <ele>481.0</ele>
        <name>Cheb,,Skalka žel.zastávka D</name>
    </wpt>
    <wpt lat="50.0809957087" lon="12.3294644058">
        <ele>469.433649858</ele>
        <name>Cheb,Podhoří P</name>
    </wpt>
    <wpt lat="50.0812384486" lon="12.3273400962">
        <ele>472.134011921</ele>
        <name>Cheb,Podhoří L</name>
    </wpt>
    <wpt lat="50.0845650584" lon="12.2997763753">
        <ele>461.0</ele>
        <name>Pomezí n.Ohří,,Tůně L</name>
    </wpt>
    <wpt lat="50.0845308602" lon="12.298783958">
        <ele>456.828310883</ele>
        <name>Pomezí n.Ohří,,Tůně P</name>
    </wpt>
    <wpt lat="50.0859215856" lon="12.2842343152">
        <ele>446.116352262</ele>
        <name>Pomezí n.Ohří,,kostel L</name>
    </wpt>
    <wpt lat="50.085940361" lon="12.2849585116">
        <ele>448.897475396</ele>
        <name>Pomezí n.Ohří,,kostel P</name>
    </wpt>
    <wpt lat="50.0864452869" lon="12.274248451">
        <ele>462.395877817</ele>
        <name>Pomezí n.Ohří P</name>
    </wpt>
    <wpt lat="50.0848480314" lon="12.4159388244">
        <ele>461.0</ele>
        <name>Cheb,Dolní Dvory L</name>
    </wpt>
    <wpt lat="50.0868583471" lon="12.4165020883">
        <ele>458.0</ele>
        <name>Cheb,,Průmyslový park II N</name>
    </wpt>
    <wpt lat="50.086831525" lon="12.4162043631">
        <ele>458.023436519</ele>
        <name>Cheb,,Průmyslový park II D</name>
    </wpt>
    <wpt lat="50.0867175311" lon="12.4110411108">
        <ele>459.0</ele>
        <name>Cheb,,Průmyslový park I L</name>
    </wpt>
    <wpt lat="50.0865391642" lon="12.4105596542">
        <ele>459.0</ele>
        <name>Cheb,,Průmyslový park I P</name>
    </wpt>
    <wpt lat="50.0912041962" lon="12.406745553">
        <ele>455.0</ele>
        <name>Cheb,,Průmyslový park K Hradišti N</name>
    </wpt>
    <wpt lat="50.0905685127" lon="12.4067683518">
        <ele>455.0</ele>
        <name>Cheb,,Průmyslový park K Hradišti D</name>
    </wpt>
    <wpt lat="50.0850726664" lon="12.405731678">
        <ele>462.0</ele>
        <name>Cheb,,Průmyslový park Podnikatelská L</name>
    </wpt>
    <wpt lat="50.0849117339" lon="12.4058148265">
        <ele>462.0</ele>
        <name>Cheb,,Průmyslový park Podnikatelská P</name>
    </wpt>
    <wpt lat="50.0850377977" lon="12.4001204967">
        <ele>461.0</ele>
        <name>Cheb,,Karlovarská P</name>
    </wpt>
    <wpt lat="50.0851591676" lon="12.3997758329">
        <ele>461.0</ele>
        <name>Cheb,,Karlovarská L</name>
    </wpt>
    <wpt lat="50.0850968063" lon="12.3964928091">
        <ele>463.0</ele>
        <name>Cheb,,hřbitov P</name>
    </wpt>
    <wpt lat="50.0759772956" lon="12.3915655911">
        <ele>452.179597584</ele>
        <name>Cheb,Maškov L</name>
    </wpt>
    <wpt lat="50.0757137686" lon="12.3918753862">
        <ele>453.0</ele>
        <name>Cheb,Maškov P</name>
    </wpt>
    <wpt lat="50.070419088" lon="12.3690913618">
        <ele>478.0</ele>
        <name>Cheb,,Dragounská Obchodní centrum N</name>
    </wpt>
    <wpt lat="50.0709152967" lon="12.3690015078">
        <ele>478.0</ele>
        <name>Cheb,,Dragounská Obchodní centrum D</name>
    </wpt>
    <wpt lat="50.0621974468" lon="12.3708696663">
        <ele>487.920193365</ele>
        <name>Cheb,Háje D</name>
    </wpt>
    <wpt lat="50.0628894567" lon="12.3762448132">
        <ele>483.085128293</ele>
        <name>Cheb,Háje,Požárníků N</name>
    </wpt>
    <wpt lat="50.0659149885" lon="12.360624969">
        <ele>489.820655697</ele>
        <name>Cheb,,CHETES L</name>
    </wpt>
    <wpt lat="50.0657446682" lon="12.3607175052">
        <ele>490.730594735</ele>
        <name>Cheb,,CHETES P</name>
    </wpt>
    <wpt lat="50.0623865426" lon="12.3425737023">
        <ele>482.0</ele>
        <name>Cheb,Dolní Pelhřimov P</name>
    </wpt>
    <wpt lat="50.0485805422" lon="12.3546114564">
        <ele>521.0</ele>
        <name>Cheb,Svatý Kříž P</name>
    </wpt>
    <wpt lat="50.0483974814" lon="12.3552431166">
        <ele>522.0</ele>
        <name>Cheb,Svatý Kříž L</name>
    </wpt>
    <wpt lat="50.0290574133" lon="12.3722657561">
        <ele>480.843316365</ele>
        <name>Cheb,,Slapany P</name>
    </wpt>
    <wpt lat="50.0291144103" lon="12.3724347353">
        <ele>480.85725011</ele>
        <name>Cheb,,Slapany N</name>
    </wpt>
    <wpt lat="50.0317718089" lon="12.3903974891">
        <ele>458.716271726</ele>
        <name>Cheb,Hrozňatov,záv.Eska L</name>
    </wpt>
    <wpt lat="50.0316745788" lon="12.3905155063">
        <ele>459.0</ele>
        <name>Cheb,Hrozňatov,záv.Eska D</name>
    </wpt>
    <wpt lat="50.0262296945" lon="12.390024662">
        <ele>454.484817564</ele>
        <name>Cheb,Hrozňatov,návrší D</name>
    </wpt>
    <wpt lat="50.0262364" lon="12.3902070522">
        <ele>452.454459</ele>
        <name>Cheb,Hrozňatov,návrší N</name>
    </wpt>
    <wpt lat="50.0236688554" lon="12.3920604587">
        <ele>453.438296276</ele>
        <name>Cheb,Hrozňatov N</name>
    </wpt>
    <wpt lat="50.0671548396" lon="12.4379061162">
        <ele>445.0</ele>
        <name>Dřenice,koupaliště</name>
    </wpt>
    <wpt lat="50.0748078525" lon="12.3794433475">
        <ele>463.271077191</ele>
        <name>Cheb,,aut.nádr. A4</name>
    </wpt>
    <wpt lat="50.0746891648" lon="12.3796901107">
        <ele>463.471483224</ele>
        <name>Cheb,,aut.nádr. A5</name>
    </wpt>
    <wpt lat="50.074500069" lon="12.3795935512">
        <ele>463.0</ele>
        <name>Cheb,,aut.nádr. A6</name>
    </wpt>
    <wpt lat="50.0744618475" lon="12.3793628812">
        <ele>463.185700846</ele>
        <name>Cheb,,aut.nádr. A1</name>
    </wpt>
    <wpt lat="50.0745812058" lon="12.3791509867">
        <ele>464.0</ele>
        <name>Cheb,,aut.nádr. A2</name>
    </wpt>
    <wpt lat="50.0747515261" lon="12.3791992664">
        <ele>464.0</ele>
        <name>Cheb,,aut.nádr. A3</name>
    </wpt>
    <wpt lat="50.0679353625" lon="12.42857337">
        <ele>469.787579762</ele>
        <name>Dřenice,,camp P</name>
    </wpt>
    <wpt lat="50.0679474324" lon="12.4287490547">
        <ele>469.996905834</ele>
        <name>Dřenice,,camp L</name>
    </wpt>
    <wpt lat="50.0768074393" lon="12.3749412596">
        <ele>448.392484971</ele>
        <name>Cheb,,křiž P</name>
    </wpt>
</gpx>