<?xml version="1.0" encoding="UTF-8" standalone="yes"?>
            <gpx xmlns="http://www.topografix.com/GPX/1/1" version="1.1" creator="mapy.cz">
            <metadata>
                <name>Vlastní body z Mapy.cz</name>
            </metadata><wpt lon="12.8294724226" lat="50.223134011">
                        <name>Karlovy Vary,, V Lučinách -</name>
                    </wpt>
                    <wpt lon="12.8329646587" lat="50.2248707414">
                        <name>Karlovy Vary,, Lipová -</name>
                    </wpt>
                    <wpt lon="12.8233543038" lat="50.2252522856">
                        <name>Karlovy Vary,, Tesco R</name>
                    </wpt>
                    <wpt lon="12.8107640147" lat="50.2146293968">
                        <name>Karlovy Vary, Tašovice, Hradištní -</name>
                    </wpt>
                    <wpt lon="12.8159165382" lat="50.2255379409">
                        <name>Karlovy Vary,, Loketská -</name>
                    </wpt>
                    <wpt lon="12.9566051066" lat="50.3098746389">
                        <name>Ostrov,, Borecká -</name>
                    </wpt>
                    <wpt lon="12.9520171881" lat="50.3101743758">
                        <name>Ostrov,, Luční -</name>
                    </wpt>
                    <wpt lon="14.0352407098" lat="50.6603729725">
                        <name>Ústí nad Labem,, Lidické nám. -</name>
                    </wpt>
                    <wpt lon="14.0368768573" lat="50.659424141">
                        <name>Ústí nad Labem,, Penny H</name>
                    </wpt>
                    <wpt lon="14.1085401177" lat="50.6603763252">
                        <name>Ústí nad Labem, Svádov, točna -</name>
                    </wpt>
                    <wpt lon="14.0668585896" lat="50.6525811553">
                        <name>Ústí nad Labem,, Kojetická -</name>
                    </wpt>
                    <wpt lon="14.0199843049" lat="50.6866961718">
                        <name>Ústí nad Labem, Petrovická</name>
                    </wpt>
                    <wpt lon="14.2046651244" lat="50.77111803">
                        <name>Děčín,, Ústecká -</name>
                    </wpt>
                    <wpt lon="14.1997137666" lat="50.7716611773">
                        <name>Děčín,, Poštovní -</name>
                    </wpt>
                    <wpt lon="14.1933086514" lat="50.7450047135">
                        <name>Děčín, Boletice nad Labem, Vítězství -</name>
                    </wpt>
                    <wpt lon="14.1878369451" lat="50.7919232547">
                        <name>Děčín,, Luční H</name>
                    </wpt>
                    <wpt lon="14.1868928075" lat="50.7911366969">
                        <name>Děčín,, Luční S</name>
                    </wpt>
                    <wpt lon="14.186501205" lat="50.7907973975">
                        <name>Děčín,, Sv. Čecha L</name>
                    </wpt>
                    <wpt lon="14.1865441203" lat="50.7906143367">
                        <name>Děčín,, Sv. Čecha N</name>
                    </wpt>
                    </gpx>