<?xml version="1.0" encoding="UTF-8" standalone="yes"?>
            <gpx xmlns="http://www.topografix.com/GPX/1/1" version="1.1" creator="mapy.cz">
            <metadata>
                <name>Vlastní body z Mapy.cz</name>
            </metadata><wpt lon="12.8754401207" lat="50.2663269639">
                        <name>Otovice,, V březinkách N</name>
                    </wpt>
                    <wpt lon="12.8753596544" lat="50.266219005">
                        <name>Otovice,, V březinkách D</name>
                    </wpt>
                    <wpt lon="12.8785072267" lat="50.2717477083">
                        <name>Sadov, Podlesí, N</name>
                    </wpt>
                    <wpt lon="12.8784522414" lat="50.2718026936">
                        <name>Sadov, Podlesí, D</name>
                    </wpt>
                    <wpt lon="12.8657600284" lat="50.2877933532">
                        <name>Hroznětín, Velký Rybník, L</name>
                    </wpt>
                    <wpt lon="12.8657653928" lat="50.2876927704">
                        <name>Hroznětín, Velký Rybník, R</name>
                    </wpt>
                    <wpt lon="12.8583651781" lat="50.290916115">
                        <name>Hroznětín, Ruprechtov, rozc. N</name>
                    </wpt>
                    <wpt lon="12.8581559658" lat="50.2909523249">
                        <name>Hroznětín, Ruprechtov, rozc. D</name>
                    </wpt>
                    <wpt lon="12.8961843252" lat="50.3120358288">
                        <name>Hroznětín, Bystřice, R</name>
                    </wpt>
                    <wpt lon="12.8960233927" lat="50.3120941669">
                        <name>Hroznětín, Bystřice, L</name>
                    </wpt>
                    <wpt lon="12.8826284409" lat="50.3091202676">
                        <name>Hroznětín,, U Budků R</name>
                    </wpt>
                    <wpt lon="12.8823360801" lat="50.3092094511">
                        <name>Hroznětín,, U Budků L</name>
                    </wpt>
                    <wpt lon="12.8727042675" lat="50.3091732413">
                        <name>Hroznětín,, nám. R</name>
                    </wpt>
                    <wpt lon="12.8717440367" lat="50.3095246106">
                        <name>Hroznětín,, nám. L</name>
                    </wpt>
                    <wpt lon="12.8611063957" lat="50.3134245425">
                        <name>Hroznětín,, žel. zast. N</name>
                    </wpt>
                    <wpt lon="12.8611761332" lat="50.3131060302">
                        <name>Hroznětín,, žel. zast. D</name>
                    </wpt>
                    </gpx>