<?xml version="1.0" encoding="UTF-8" standalone="yes"?>
            <gpx xmlns="http://www.topografix.com/GPX/1/1" version="1.1" creator="mapy.cz">
            <metadata>
                <name>Vlastní body z Mapy.cz</name>
            </metadata><wpt lon="13.3125758171" lat="50.1319482923">
                        <name>Lubenec,, Karlovarská R</name>
                    </wpt>
                    <wpt lon="13.3123371005" lat="50.1320374757">
                        <name>Lubenec,, Karlovarská L</name>
                    </wpt>
                    <wpt lon="14.3214793503" lat="50.0754247606">
                        <name>Praha,, Karlovarská R</name>
                    </wpt>
                    <wpt lon="14.3241266906" lat="50.0754817575">
                        <name>Praha,, Karlovarská L</name>
                    </wpt>
                    <wpt lon="14.4030573964" lat="50.0971660763">
                        <name>Praha,, Hradčanská L</name>
                    </wpt>
                    <wpt lon="14.4059300423" lat="50.0973431021">
                        <name>Praha,, Hradčanská R</name>
                    </wpt>
                    <wpt lon="14.4409114122" lat="50.0896753371">
                        <name>Praha,, Florenc V</name>
                    </wpt>
                    <wpt lon="14.4409006834" lat="50.0893487781">
                        <name>Praha,, Florenc</name>
                    </wpt>
                    </gpx>