<?xml version="1.0" encoding="UTF-8" standalone="yes"?>
            <gpx xmlns="http://www.topografix.com/GPX/1/1" version="1.1" creator="mapy.cz">
            <metadata>
                <name>Vlastní body z Mapy.cz</name>
            </metadata><wpt lon="12.7518452704" lat="50.2072452754">
                        <name>Nové Sedlo, Loučky, R</name>
                    </wpt>
                    <wpt lon="12.7516387403" lat="50.2072660625">
                        <name>Nové Sedlo, Loučky, L</name>
                    </wpt>
                    <wpt lon="12.7459873259" lat="50.2079574019">
                        <name>Nové Sedlo,, rozc. R</name>
                    </wpt>
                    <wpt lon="12.7447991073" lat="50.2084998786">
                        <name>Nové Sedlo,, rozc. L</name>
                    </wpt>
                    <wpt lon="12.7406685054" lat="50.2131072432">
                        <name>Nové Sedlo,, Družba -</name>
                    </wpt>
                    <wpt lon="12.7349795401" lat="50.2070595324">
                        <name>Nové Sedlo,, kino L</name>
                    </wpt>
                    <wpt lon="12.7343975008" lat="50.2060832083">
                        <name>Nové Sedlo,, kino N</name>
                    </wpt>
                    <wpt lon="12.7418057621" lat="50.1896211505">
                        <name>Loket,, Střelecká L</name>
                    </wpt>
                    <wpt lon="12.7400247753" lat="50.189672783">
                        <name>Loket,, Střelecká R</name>
                    </wpt>
                    <wpt lon="12.7217911184" lat="50.1823315769">
                        <name>Staré Sedlo,, R</name>
                    </wpt>
                    <wpt lon="12.7200369537" lat="50.1818112284">
                        <name>Staré Sedlo,, L</name>
                    </wpt>
                    <wpt lon="12.7123121917" lat="50.1803997159">
                        <name>Staré Sedlo,, lanovka L</name>
                    </wpt>
                    <wpt lon="12.7132697403" lat="50.1804406196">
                        <name>Staré Sedlo,, lanovka R</name>
                    </wpt>
                    <wpt lon="12.6711161435" lat="50.1765031368">
                        <name>Sokolov, Těšovice, R</name>
                    </wpt>
                    <wpt lon="12.6693405211" lat="50.1771455258">
                        <name>Sokolov, Těšovice, L</name>
                    </wpt>
                    <wpt lon="12.6486633718" lat="50.1764541864">
                        <name>Sokolov,, banka D</name>
                    </wpt>
                    <wpt lon="12.6477138698" lat="50.1769369841">
                        <name>Sokolov,, banka N</name>
                    </wpt>
                    <wpt lon="12.6421026886" lat="50.185521394">
                        <name>Sokolov,, Terminál -</name>
                    </wpt>
                    <wpt lon="12.3792918026" lat="50.0748085231">
                        <name>Cheb,, aut. nádr. -</name>
                    </wpt>
                    <wpt lon="12.3490472138" lat="50.12101762">
                        <name>Františkovy Lázně,, městské sady N</name>
                    </wpt>
                    <wpt lon="12.3490069807" lat="50.1208352298">
                        <name>Františkovy Lázně,, městské sady D</name>
                    </wpt>
                    </gpx>