<?xml version="1.0" encoding="UTF-8" standalone="yes"?>
            <gpx xmlns="http://www.topografix.com/GPX/1/1" version="1.1" creator="mapy.cz">
            <metadata>
                <name>Vlastní body z Mapy.cz</name>
            </metadata><wpt lon="12.7806669474" lat="50.2134485543">
                        <name>Hory,, L</name>
                    </wpt>
                    <wpt lon="12.7816084027" lat="50.2136584371">
                        <name>Hory,, R</name>
                    </wpt>
                    <wpt lon="12.7673014998" lat="50.2061864734">
                        <name>Nové Sedlo,, Jalový Dvůr N</name>
                    </wpt>
                    <wpt lon="12.7673819661" lat="50.2064231783">
                        <name>Nové Sedlo,, Jalový Dvůr D</name>
                    </wpt>
                    <wpt lon="12.7646702528" lat="50.1814612001">
                        <name>Loket,, Buková D</name>
                    </wpt>
                    <wpt lon="12.7647721767" lat="50.181459859">
                        <name>Loket,, Buková N</name>
                    </wpt>
                    <wpt lon="12.7610385418" lat="50.1842010766">
                        <name>Loket,, předměstí R</name>
                    </wpt>
                    <wpt lon="12.7614301443" lat="50.1842057705">
                        <name>Loket,, předměstí L</name>
                    </wpt>
                    <wpt lon="12.767341733" lat="50.1782573014">
                        <name>Loket,, garáže R</name>
                    </wpt>
                    <wpt lon="12.7675549686" lat="50.1782619953">
                        <name>Loket,, garáže L</name>
                    </wpt>
                    <wpt lon="12.7730293572" lat="50.1711755991">
                        <name>Loket,, údolí D</name>
                    </wpt>
                    <wpt lon="12.7732734382" lat="50.1710173488">
                        <name>Loket,, údolí N</name>
                    </wpt>
                    <wpt lon="12.7768850327" lat="50.1615853608">
                        <name>Horní Slavkov,, Vlčí N</name>
                    </wpt>
                    <wpt lon="12.7773785591" lat="50.1610375196">
                        <name>Horní Slavkov,, Vlčí D</name>
                    </wpt>
                    <wpt lon="12.7820791304" lat="50.1581621915">
                        <name>Horní Slavkov,, porcelánka L</name>
                    </wpt>
                    <wpt lon="12.7821300924" lat="50.1580180228">
                        <name>Horní Slavkov,, porcelánka R</name>
                    </wpt>
                    <wpt lon="12.7916827798" lat="50.1524940133">
                        <name>Horní Slavkov, Bošířany, rozc. D</name>
                    </wpt>
                    <wpt lon="12.7918168902" lat="50.1525181532">
                        <name>Horní Slavkov, Bošířany, rozc. N</name>
                    </wpt>
                    <wpt lon="12.8084734082" lat="50.1401974261">
                        <name>Horní Slavkov,, nám. N</name>
                    </wpt>
                    <wpt lon="12.8089253604" lat="50.1404026151">
                        <name>Horní Slavkov,, nám. L</name>
                    </wpt>
                    <wpt lon="12.8174494207" lat="50.1348564774">
                        <name>Horní Slavkov, Kounice, R</name>
                    </wpt>
                    <wpt lon="12.817350179" lat="50.1349074394">
                        <name>Horní Slavkov, Kounice, L</name>
                    </wpt>
                    <wpt lon="12.797267139" lat="50.1364181936">
                        <name>Horní Slavkov,, sídliště V</name>
                    </wpt>
                    <wpt lon="12.7974683046" lat="50.1364845783">
                        <name>Horní Slavkov,, sídliště -</name>
                    </wpt>
                    <wpt lon="12.792429775" lat="50.1141122729">
                        <name>Krásno,, rozc. 0.3 D</name>
                    </wpt>
                    <wpt lon="12.7923224866" lat="50.1129971445">
                        <name>Krásno,, rozc. 0.3 N</name>
                    </wpt>
                    <wpt lon="12.791107446" lat="50.1094264537">
                        <name>Krásno,, L</name>
                    </wpt>
                    <wpt lon="12.7912040055" lat="50.1094003022">
                        <name>Krásno,, R</name>
                    </wpt>
                    </gpx>