<?xml version="1.0" encoding="UTF-8" standalone="yes"?>
            <gpx xmlns="http://www.topografix.com/GPX/1/1" version="1.1" creator="mapy.cz">
            <metadata>
                <name>Vlastní body z Mapy.cz</name>
            </metadata><wpt lon="12.8990663588" lat="50.2519429475">
                        <name>Dalovice,, Dlouhá N</name>
                    </wpt>
                    <wpt lon="12.8989228606" lat="50.2518946677">
                        <name>Dalovice,, Dlouhá D</name>
                    </wpt>
                    <wpt lon="12.9025988281" lat="50.2549463511">
                        <name>Dalovice, Vysoká, R</name>
                    </wpt>
                    <wpt lon="12.9024204612" lat="50.2549906075">
                        <name>Dalovice, Vysoká, L</name>
                    </wpt>
                    <wpt lon="12.9143951833" lat="50.262440443">
                        <name>Sadov, Lesov, Sedmidomky R</name>
                    </wpt>
                    <wpt lon="12.9141806066" lat="50.2624102682">
                        <name>Sadov, Lesov, Sedmihorky L</name>
                    </wpt>
                    <wpt lon="12.8894707561" lat="50.2718449384">
                        <name>Sadov,, škola R</name>
                    </wpt>
                    <wpt lon="12.8901104629" lat="50.2718248218">
                        <name>Sadov,, škola L</name>
                    </wpt>
                    <wpt lon="12.9025653005" lat="50.266174078">
                        <name>Sadov,, C</name>
                    </wpt>
                    <wpt lon="12.9121381044" lat="50.2668238431">
                        <name>Sadov, Lesov, Dolní Lesov N</name>
                    </wpt>
                    <wpt lon="12.9124559462" lat="50.2665817738">
                        <name>Sadov, Lesov, Dolní Lesov D</name>
                    </wpt>
                    <wpt lon="12.9156477749" lat="50.2646626532">
                        <name>Sadov, Lesov, rozc. N</name>
                    </wpt>
                    <wpt lon="12.9154855013" lat="50.2646727115">
                        <name>Sadov, Lesov, rozc. D</name>
                    </wpt>
                    <wpt lon="12.927788794" lat="50.2644494176">
                        <name>Sadov, Bor, R</name>
                    </wpt>
                    <wpt lon="12.9277311265" lat="50.264493674">
                        <name>Sadov, Bor, L</name>
                    </wpt>
                    <wpt lon="12.9360795021" lat="50.2654840797">
                        <name>Sadov, Bor, škola L</name>
                    </wpt>
                    <wpt lon="12.9365354776" lat="50.2656215429">
                        <name>Sadov, Bor, škola R</name>
                    </wpt>
                    <wpt lon="12.9439491034" lat="50.2670310438">
                        <name>Sadov, Bor, statek N</name>
                    </wpt>
                    <wpt lon="12.9437492788" lat="50.2670491487">
                        <name>Sadov, Bor, statek D</name>
                    </wpt>
                    <wpt lon="12.9271517694" lat="50.2718751132">
                        <name>Sadov, Nová Víska, -</name>
                    </wpt>
                    <wpt lon="12.9476492107" lat="50.2670028806">
                        <name>Sadov, Bor, rozc. R</name>
                    </wpt>
                    <wpt lon="12.9475674033" lat="50.2670243382">
                        <name>Sadov, Bor, rozc. L</name>
                    </wpt>
                    <wpt lon="12.9619118571" lat="50.2705165744">
                        <name>Sadov, Stráň, -</name>
                    </wpt>
                    <wpt lon="12.9638390243" lat="50.2542959154">
                        <name>Šemnice, Pulovice, -</name>
                    </wpt>
                    <wpt lon="12.9637759924" lat="50.2543348074">
                        <name>Šemnice, Pulovice, V</name>
                    </wpt>
                    </gpx>